{"entries":[{"latitude":"58.96403044","navn":"Helgø Mat Stokka","plast":"J","glass_metall":"J","tekstil_sko":"J","longitude":"5.701959134"},{"latitude":"58.95741267","navn":"Lassa, Sandal","plast":"J","glass_metall":"J","tekstil_sko":"J","longitude":"5.691178138"},{"latitude":"58.96556319","navn":"P-plass, Stavanger Stadion","plast":"J","glass_metall":"J","tekstil_sko":"J","longitude":"5.714303294"},{"latitude":"58.96278871","navn":"Prix, Storgata, Våland","plast":"J","glass_metall":"J","tekstil_sko":"J","longitude":"5.730416435"},{"latitude":"58.96636625","navn":"St. Olav, sentrum","plast":"J","glass_metall":"J","tekstil_sko":"N","longitude":"5.729639528"},{"latitude":"58.96979411","navn":"Straen Senter","plast":"J","glass_metall":"J","tekstil_sko":"J","longitude":"5.728378543"},{"latitude":"58.97416174","navn":"P-plass, Bjergsted","plast":"J","glass_metall":"J","tekstil_sko":"N","longitude":"5.719416266"},{"latitude":"58.97508978","navn":"Rimi Bragetunet","plast":"J","glass_metall":"J","tekstil_sko":"N","longitude":"5.71112004"},{"latitude":"58.98340648","navn":"Rema 1000, Randabergveien","plast":"J","glass_metall":"J","tekstil_sko":"J","longitude":"5.685560296"},{"latitude":"58.97786553","navn":"Prestveien, Tasta","plast":"J","glass_metall":"J","tekstil_sko":"J","longitude":"5.697528209"},{"latitude":"58.98941334","navn":"Teinå skole","plast":"J","glass_metall":"J","tekstil_sko":"J","longitude":"5.683081014"},{"latitude":"58.99300919","navn":"Shell, Vardeneset","plast":"J","glass_metall":"J","tekstil_sko":"N","longitude":"5.676046304"},{"latitude":"58.98367341","navn":"Tasta senter","plast":"J","glass_metall":"J","tekstil_sko":"J","longitude":"5.69115321"},{"latitude":"58.94336957","navn":"Prix, Madlamark","plast":"J","glass_metall":"J","tekstil_sko":"J","longitude":"5.690348082"},{"latitude":"58.93932213","navn":"Kiwi, Gosen","plast":"J","glass_metall":"J","tekstil_sko":"N","longitude":"5.688239496"},{"latitude":"58.95178061","navn":"Madla Amfi","plast":"J","glass_metall":"J","tekstil_sko":"J","longitude":"5.676534418"},{"latitude":"58.9408755","navn":"Grenaderveien 2","plast":"J","glass_metall":"J","tekstil_sko":"N","longitude":"5.649901144"},{"latitude":"58.94757625","navn":"Hestnes","plast":"J","glass_metall":"J","tekstil_sko":"N","longitude":"5.631591453"},{"latitude":"58.95187345","navn":"Rimi Stormarked, Revheimsv, Ragbk","plast":"J","glass_metall":"J","tekstil_sko":"J","longitude":"5.656045492"},{"latitude":"58.95604704","navn":"Rema 1000, Søra Bråde","plast":"J","glass_metall":"J","tekstil_sko":"J","longitude":"5.635983059"},{"latitude":"58.96100212","navn":"Revheimsveien Servicesenter","plast":"J","glass_metall":"J","tekstil_sko":"J","longitude":"5.630236216"},{"latitude":"58.96527204","navn":"Kverntorget, Mjughøyden","plast":"J","glass_metall":"J","tekstil_sko":"J","longitude":"5.611541351"},{"latitude":"58.89496547","navn":"Rema Stormarked Forus","plast":"J","glass_metall":"J","tekstil_sko":"N","longitude":"5.703514398"},{"latitude":"58.89496547","navn":"Rema Stormarked Forus","plast":"J","glass_metall":"J","tekstil_sko":"N","longitude":"5.703514398"},{"latitude":"58.89176892","navn":"Shell, Forusbeen","plast":"J","glass_metall":"J","tekstil_sko":"J","longitude":"5.73345114"},{"latitude":"58.89581468","navn":"Kiwi, Kviebakken","plast":"J","glass_metall":"J","tekstil_sko":"J","longitude":"5.724266882"},{"latitude":"58.89966874","navn":"Gautesete skole","plast":"J","glass_metall":"J","tekstil_sko":"N","longitude":"5.723082519"},{"latitude":"58.90012832","navn":"Godeset skole","plast":"J","glass_metall":"J","tekstil_sko":"N","longitude":"5.713498467"},{"latitude":"58.90313379","navn":"Mariabakken","plast":"J","glass_metall":"J","tekstil_sko":"N","longitude":"5.717632302"},{"latitude":"58.90537493","navn":"ICA, Gausel","plast":"J","glass_metall":"J","tekstil_sko":"N","longitude":"5.733218323"},{"latitude":"58.9034677","navn":"Gausellia, Traktebergveien*","plast":"N","glass_metall":"J","tekstil_sko":"N","longitude":"5.7242867"},{"latitude":"58.9182997","navn":"Hinna Skole","plast":"J","glass_metall":"J","tekstil_sko":"J","longitude":"5.724604764"},{"latitude":"58.915921","navn":"Jåttåvågen, Laberghagen*","plast":"J","glass_metall":"J","tekstil_sko":"N","longitude":"5.738790"},{"latitude":"58.91093941","navn":"Boganes Sykehjem","plast":"J","glass_metall":"J","tekstil_sko":"N","longitude":"5.728162469"},{"latitude":"58.93545073","navn":"P-plass Hetlandshallen","plast":"J","glass_metall":"J","tekstil_sko":"J","longitude":"5.73213487"},{"latitude":"58.94739287","navn":"Rema 1000 Bispeladegård","plast":"J","glass_metall":"J","tekstil_sko":"J","longitude":"5.742255689"},{"latitude":"58.94836508","navn":"Kilden, Hillevåg torg","plast":"J","glass_metall":"J","tekstil_sko":"J","longitude":"5.741190638"},{"latitude":"58.95081212","navn":"Bekkefaret","plast":"J","glass_metall":"J","tekstil_sko":"N","longitude":"5.726369374"},{"latitude":"58.9427961","navn":"Øvre Sandvikveien:J","plast":"N","glass_metall":"J","longitude":"5.741620251"},{"latitude":"58.94629379","navn":"Saxemarka, Solsletteveien","plast":"J","glass_metall":"J","tekstil_sko":"N","longitude":"5.720149902"},{"latitude":"58.94786017","navn":"Saxemarka, Coop Prix","plast":"J","glass_metall":"J","tekstil_sko":"N","longitude":"5.7203312"},{"latitude":"58.95026339","navn":"P-plass, Tjensvolltorget","plast":"J","glass_metall":"J","tekstil_sko":"J","longitude":"5.697576095"},{"latitude":"58.93497183","navn":"P-plass, Oljedirektoratet","plast":"J","glass_metall":"J","tekstil_sko":"N","longitude":"5.701431732"},{"latitude":"58.9390339","navn":"p-plass Kjell Arholmsgate 26*","plast":"J","glass_metall":"J","tekstil_sko":"N","longitude":"5.6954631"},{"latitude":"58.96823719","navn":"P-plass, Hetland kirke","plast":"J","glass_metall":"J","tekstil_sko":"J","longitude":"5.742567622"},{"latitude":"58.95805635","navn":"Hjelmelandsgata/Hellelandsveien","plast":"J","glass_metall":"J","tekstil_sko":"N","longitude":"5.748653553"},{"latitude":"58.95974301","navn":"Varden Nymansveien","plast":"J","glass_metall":"J","tekstil_sko":"J","longitude":"5.752540838"},{"latitude":"58.961602","navn":"Emmaus, Rasmus Risas gate*","plast":"J","glass_metall":"J","tekstil_sko":"N","longitude":"5.761152"},{"latitude":"58.97168485","navn":"P-plass. Rimi, Badedammen","plast":"J","glass_metall":"J","tekstil_sko":"J","longitude":"5.749897261"},{"latitude":"58.97800229","navn":"Sølyst","plast":"J","glass_metall":"J","tekstil_sko":"J","longitude":"5.74537096"},{"latitude":"58.99325173","navn":"Hundvågkrossen","plast":"J","glass_metall":"J","tekstil_sko":"J","longitude":"5.728763763"},{"latitude":"59.00110283","navn":"Kiwi Hundvåg, Krosshaug","plast":"J","glass_metall":"J","tekstil_sko":"J","longitude":"5.742144157"},{"latitude":"59.00405394","navn":"Lundsvågen naturskole","plast":"J","glass_metall":"J","tekstil_sko":"N","longitude":"5.755516809"},{"latitude":"58.99160784","navn":"Roaldsøy v/kaien","plast":"J","glass_metall":"J","tekstil_sko":"N","longitude":"5.760446685"},{"latitude":"58.99849165","navn":"Vassøyferja","plast":"J","glass_metall":"J","tekstil_sko":"J","longitude":"5.782576923"},{"latitude":"58.99318094","navn":"Coop Prix. Austbøsletta","plast":"J","glass_metall":"J","tekstil_sko":"J","longitude":"5.74369127"}],"page":1,"pages":1,"posts":56}