{"entries":[{"kommune":"Aremark","fylke":"Østfold","navn":"Rådhuset","sistEndret":"2015-06-30","addresse":"1798 Aremark","aapningstider":"08.00 - 15.00","lon":"11.695783","id":"66297","lat":"59.222181","url":"http://valglokaler.no/valglokale-forhands/radhuset/"},{"kommune":"Askim","fylke":"Østfold","navn":"Løkentunet","sistEndret":"2015-06-30","addresse":"Løkenveien 16, 1813 Askim","aapningstider":"","lon":"11.171415","id":"66298","lat":"59.578806","url":"http://valglokaler.no/valglokale-forhands/lokentunet/"},{"kommune":"Askim","fylke":"Østfold","navn":"Servicetorget","sistEndret":"2015-06-30","addresse":"Askim rådhus,Skolegata 12, 1830 Askim","aapningstider":"Åpningstid:  10.08.-11.09.2015: kl. 08.00-15.30    Utvidet åpningstid mandager og torsdager:  10.08.-11.09.2015: kl. 15.30-19.00","lon":"11.1609456","id":"66300","lat":"59.584476","url":"http://valglokaler.no/valglokale-forhands/servicetorget/"},{"kommune":"Eidsberg","fylke":"Østfold","navn":"Eidsberg bibliotek","sistEndret":"2015-06-30","addresse":"Storgata 15, 1850 Mysen","aapningstider":"Åpningstider :  mandag Stengt   tirs-tor 10.00 - 19.00   fredag 10.00 - 15.00   lørdag 10.00 - 14.00  Siste frist fredag 11.sept kl. 15.00","lon":"11.330694","id":"66301","lat":"59.553323","url":"http://valglokaler.no/valglokale-forhands/eidsberg-bibliotek/"},{"kommune":"Fredrikstad","fylke":"Østfold","navn":"Servicetorget","sistEndret":"2015-09-01","addresse":"Nygaardsgate 16, Rådhuset, 1606 Fredrikstad","aapningstider":"Åpningstider:  Uke 36 (31.08 -05.09):  kl. 08:00 – 18:00 mandag, tirsdag, onsdag  kl. 08:00 – 20:00 torsdag  kl. 08:00 – 15:30 fredag  kl. 12:00 – 15:00 lørdag     Uke 37 (07.09 – 11.09):  kl. 08:00 – 18:00 mandag, tirsdag, onsdag  kl. 08:00 – 20:00 torsdag  kl. 08:00 – 15:30 fredag","lon":"10.940291","id":"66311","lat":"59.210325","url":"http://valglokaler.no/valglokale-forhands/servicetorget-2/"},{"kommune":"Halden","fylke":"Østfold","navn":"Halden Rådhus","sistEndret":"2015-06-30","addresse":"Storgt 8,Halden rådhus,NAV/Servicesenter, 1771 Halden","aapningstider":"Hverdager man-fre 09.00-14.30 i tiden 10. august til og med fredag 11. september 2015.","lon":"11.386748","id":"66323","lat":"59.122507","url":"http://valglokaler.no/valglokale-forhands/halden-radhus/"},{"kommune":"Halden","fylke":"Østfold","navn":"Tistasenteret","sistEndret":"2015-06-30","addresse":"Walkers gt 4, 1771 Halden","aapningstider":"Valgdebatt og forhåndsstemmegivning lørdag 29. august 2015 kl. 10.00 -16.00 i Tistasenteret.","lon":"11.381","id":"66324","lat":"59.121393","url":"http://valglokaler.no/valglokale-forhands/tistasenteret/"},{"kommune":"Hobøl","fylke":"Østfold","navn":"Servicetorget","sistEndret":"2015-06-30","addresse":"Elvestadveien 1000, 1827 Hobøl","aapningstider":"Mandag - fredag kl 08.00-15.00    Langåpent:  7. september kl 08.00-18.30  9. september kl 08.00-18.30","lon":"10.949717","id":"66333","lat":"59.622610","url":"http://valglokaler.no/valglokale-forhands/servicetorget-3/"},{"kommune":"Hobøl","fylke":"Østfold","navn":"Biblioteket","sistEndret":"2015-06-30","addresse":"Engen 2, 1825 Tomter","aapningstider":"Bibliotekets ordinære åpningstider    (Sommertid 10. aug. - 31. aug.)","lon":"11.002192","id":"66335","lat":"59.659019","url":"http://valglokaler.no/valglokale-forhands/biblioteket/"},{"kommune":"Hvaler","fylke":"Østfold","navn":"Rådhuset","sistEndret":"2015-06-30","addresse":"Storveien 32, 1680 Skjærhalden","aapningstider":"10.08. - 11.09.15:  mandag - fredag: kl. 08:00 - 15:30    Utvidet åpningstid:  Onsdag 02.09.15: kl. 08:00 - 20:00  Tirsdag 08.09.15: kl. 08:00 - 20:00","lon":"11.031203","id":"66336","lat":"59.028148","url":"http://valglokaler.no/valglokale-forhands/radhuset-2/"},{"kommune":"Marker","fylke":"Østfold","navn":"Bibliotek","sistEndret":"2015-06-30","addresse":"Storgata 60, 1870 Ørje","aapningstider":"10. august til 11. september mandag til fredag fra 08.00-15.00. 1.3.8.10. september fra 08.00-19.00 Lørdag 5. september: 10.00-13.00","lon":"11.659087","id":"66339","lat":"59.479833","url":"http://valglokaler.no/valglokale-forhands/bibliotek/"},{"kommune":"Marker","fylke":"Østfold","navn":"MBSS","sistEndret":"2015-06-30","addresse":"Braarudveien 25, 1870 Ørje","aapningstider":"Forhåndsstemming  torsdag 10. september fra kl. 10.00-12.00","lon":"11.659087","id":"66340","lat":"59.479833","url":"http://valglokaler.no/valglokale-forhands/mbss/"},{"kommune":"Moss","fylke":"Østfold","navn":"Rådhuset","sistEndret":"2015-06-30","addresse":"Kirkegata 15, 1531 Moss","aapningstider":"Åpningstider:  10.08. -11.09.2015:   mandag-fredag: kl. 08.00-15.00    Utvidet åpningstid:  Torsdag 03.09 og 10.09 fra kl. 08.00 - 18.00  Lørdag  29.08 og 05.09 fra kl. 10.00 - 13.00​","lon":"10.659099","id":"66348","lat":"59.434427","url":"http://valglokaler.no/valglokale-forhands/radhuset-3/"},{"kommune":"Råde","fylke":"Østfold","navn":"Rådhuset","sistEndret":"2015-07-03","addresse":"Skråtorpveien 2 A, 1640 Råde","aapningstider":"Åpningstider:  Mandag til fredag kl. 08.00 - 15.00     Langåpent:  Tirsdag 8.september kl. 08.00 - 20.00","lon":"10.871532","id":"66352","lat":"59.351748","url":"http://valglokaler.no/valglokale-forhands/radhuset-4/"},{"kommune":"Råde","fylke":"Østfold","navn":"TOMB- videregående skole og landbruksstudier","sistEndret":"2015-06-30","addresse":"Tomballéen 7, 1640 Råde","aapningstider":"Åpningstider: 03.09.2015 kl. 10.00 - 13.00","lon":"10.812277","id":"66353","lat":"59.321107","url":"http://valglokaler.no/valglokale-forhands/tomb-videregaende-skole-og-landbruksstudier/"},{"kommune":"Råde","fylke":"Østfold","navn":"Råde sykehjem","sistEndret":"2015-06-30","addresse":"Skoleveien 3, 1640 Råde","aapningstider":"Åpningstider:  19.08.2015 kl. 10.00 - 13.00","lon":"10.869942","id":"66355","lat":"59.348836","url":"http://valglokaler.no/valglokale-forhands/rade-sykehjem/"},{"kommune":"Rakkestad","fylke":"Østfold","navn":"Biblioteket","sistEndret":"2015-06-30","addresse":"Rådhusveien 8, 1890 Rakkestad","aapningstider":"Åpningstider:  Tirsdag 08.09.2015:   kl. 15.00 - 18.00  Onsdag 09.09.2015:  kl. 15.00 - 18.00  Torsdag 10.09.2015: kl. 15.00 - 18.00","lon":"11.342719","id":"66357","lat":"59.428166","url":"http://valglokaler.no/valglokale-forhands/biblioteket-2/"},{"kommune":"Rakkestad","fylke":"Østfold","navn":"Servicekontoret","sistEndret":"2015-06-30","addresse":"Rådhusveien 8, 1890 Rakkestad","aapningstider":"Åpningstider:  10.08. - 11.09.2015  mandag-fredag: kl. 08.30 - 15.00.    Utvidet åpningstid:  Lørdag 05.09.2015: kl. 10.00 - 15.00.","lon":"11.342719","id":"66358","lat":"59.428166","url":"http://valglokaler.no/valglokale-forhands/servicekontoret/"},{"kommune":"Rømskog","fylke":"Østfold","navn":"Rømskog Forhånd","sistEndret":"2015-06-30","addresse":"kommunehuset,Engehaget, 1950 RØMSKOG","aapningstider":"","lon":"11.810756","id":"66360","lat":"59.749588","url":"http://valglokaler.no/valglokale-forhands/romskog-forhand/"},{"kommune":"Rygge","fylke":"Østfold","navn":"Servicetorget","sistEndret":"2015-06-30","addresse":"Larkollveien 9, 1570 Dilling","aapningstider":"","lon":"10.692873","id":"66364","lat":"59.40635","url":"http://valglokaler.no/valglokale-forhands/servicetorget-4/"},{"kommune":"Sarpsborg","fylke":"Østfold","navn":"Skjeberg bibliotek","sistEndret":"2015-06-30","addresse":"Rådhusveien 17, 1739 Borgenhaugen","aapningstider":"10.08-31.08: man-tirs 13-19 og ons- fre 10-15  01.09- 11.09: man- tirs 13-19 og ons-fre 10-16","lon":"11.169523","id":"66378","lat":"59.266915","url":"http://valglokaler.no/valglokale-forhands/skjeberg-bibliotek/"},{"kommune":"Sarpsborg","fylke":"Østfold","navn":"Tune bibliotek","sistEndret":"2015-06-30","addresse":"Vesterheimveien 2, 1712 Grålum","aapningstider":"10.08-31.08: man og tors 13-19 og tirs,ons, fre 10-15  01.09- 11.09: man og tors 13-19 og tirs,ons, fre 10-16","lon":"11.064606","id":"66380","lat":"59.294468","url":"http://valglokaler.no/valglokale-forhands/tune-bibliotek/"},{"kommune":"Sarpsborg","fylke":"Østfold","navn":"Servicetorget","sistEndret":"2015-06-30","addresse":"Glengsgata 38, 1706 Sarpsborg","aapningstider":"10.08 - 31.08: man-fre 08.00 - 15.00  01.09 -10.09: man-fre 08.00 - 15.30   11.09: 08.00 - 17.00","lon":"11.111609","id":"66383","lat":"59.281498","url":"http://valglokaler.no/valglokale-forhands/servicetorget-5/"},{"kommune":"Skiptvet","fylke":"Østfold","navn":"Sollia bo- og servicesenter","sistEndret":"2015-06-30","addresse":"Sollia 1, 1816 Skiptvet","aapningstider":"Mere informasjon om valget finner du på våre hjemmesider","lon":"11.169319","id":"66386","lat":"59.470853","url":"http://valglokaler.no/valglokale-forhands/sollia-bo-og-servicesenter/"},{"kommune":"Skiptvet","fylke":"Østfold","navn":"Servicekontoret","sistEndret":"2015-06-30","addresse":"Storveien 24, 1816 Skiptvet","aapningstider":"Mere informasjon om valget finner du på våre hjemmesider","lon":"11.161895","id":"66387","lat":"59.477043","url":"http://valglokaler.no/valglokale-forhands/servicekontoret-2/"},{"kommune":"Spydeberg","fylke":"Østfold","navn":"Kommunehuset","sistEndret":"2015-06-30","addresse":"Stasjonsgata 35, 1820 Spydeberg","aapningstider":"Åpningstider:  10.08.-11.09.2015: man.-fre.: kl. 8.00-15.00  Utvidet åpningstid:   Lør.  05.09.2015: kl. 10.00-14.00  Ons. 09.09.2015: kl. 08.00-19.00","lon":"11.080825","id":"66388","lat":"59.620266","url":"http://valglokaler.no/valglokale-forhands/kommunehuset/"},{"kommune":"Trøgstad","fylke":"Østfold","navn":"Servicetorget","sistEndret":"2015-06-30","addresse":"Kirkeveien 17, 1860 Trøgstad","aapningstider":"10.08.-04.09.2015: kl. 08.00-15.00  07.09.-10.09.2015: kl. 08.00-18.00  11.09.-11.09.2015: kl. 08.00-15.00   29.08 og 05.09:      kl.10.00-14.00","lon":"11.315253","id":"66391","lat":"59.641387","url":"http://valglokaler.no/valglokale-forhands/servicetorget-6/"},{"kommune":"Våler","fylke":"Østfold","navn":"Våler Herredshus","sistEndret":"2015-08-11","addresse":"Kjosveien 1, 1592 Våler","aapningstider":"09.00 - 15.00 på NAV, Våler Herredshus  Mandag - Fredag","lon":"10.865405","id":"66392","lat":"59.488664","url":"http://valglokaler.no/valglokale-forhands/valer-herredshus/"},{"kommune":"Våler","fylke":"Østfold","navn":"Våler Bibliotek","sistEndret":"2015-08-11","addresse":"1592 Våler","aapningstider":"Våler Bibliotek v/Kirkebygden skole.  Mandag, tirsdag, onsdag 13.00 - 16.00  Fra 15/8 - 11/9","lon":"10.858246","id":"66393","lat":"59.490022","url":"http://valglokaler.no/valglokale-forhands/valer-bibliotek/"},{"kommune":"Ås","fylke":"Akershus","navn":"Nordby bibliotek","sistEndret":"2015-06-30","addresse":"Vinterbro kjøpesenter,Sjøskogenveien 7, 1407 Vinterbro","aapningstider":"10.08.-11.09.:  Kun åpent torsdager kl. 11.00-19.00.","lon":"10.770834","id":"66397","lat":"59.739540","url":"http://valglokaler.no/valglokale-forhands/nordby-bibliotek/"},{"kommune":"Ås","fylke":"Akershus","navn":"Norges miljø- og biovitenskapelige universitet","sistEndret":"2015-06-30","addresse":"Bioteknologibygningen,Chr. Magnus Falsens vei 1, 1430 Ås","aapningstider":"Mandag 7. og tirsdag 8. september kl. 09.00-14.00.","lon":"10.770066","id":"66401","lat":"59.666158","url":"http://valglokaler.no/valglokale-forhands/norges-miljo-og-biovitenskapelige-universitet/"},{"kommune":"Ås","fylke":"Akershus","navn":"Servicetorget","sistEndret":"2015-07-02","addresse":"Rådhuset,Skoleveien 1, 1430 Ås","aapningstider":"10.08.-11.09.:  Man.- fre. kl. 08.00-15.30  Tors. kl. 08.00-17.00    Utvidet åpningstid:  Lør. 05.09. kl. 10.00-14.00  Tors. 10.09. kl. 08.00-20.00","lon":"10.791067","id":"66402","lat":"59.663648","url":"http://valglokaler.no/valglokale-forhands/servicetorget-7/"},{"kommune":"Asker","fylke":"Akershus","navn":"Servicetorget","sistEndret":"2015-06-30","addresse":"Knud Askers vei 24, 1383 ASKER","aapningstider":"Åpningstider: 10.08. -11.09.2015:   mandag-torsdag: kl. 08.00-18.00  fredager: 08:00-15:30 (11/9 - til kl. 1800)   lørdager: kl. 10:00-14:00","lon":"10.434973","id":"66407","lat":"59.836746","url":"http://valglokaler.no/valglokale-forhands/servicetorget-8/"},{"kommune":"Aurskog-Høland","fylke":"Akershus","navn":"Rådhuset","sistEndret":"2015-06-30","addresse":"Rådhusveien 3, 1940 Bjørkelangen","aapningstider":"","lon":"11.564962","id":"66415","lat":"59.883149","url":"http://valglokaler.no/valglokale-forhands/radhuset-5/"},{"kommune":"Bærum","fylke":"Akershus","navn":"Rykkinn bibliotek","sistEndret":"2015-09-03","addresse":"1349 Rykkinn","aapningstider":"10.08 - 28.08 (mandag-fredag) kl. 08:00-15:00.   Lørdag 29.08 og lørdag 05.09 kl. 10:00-15:00.   31.08 - 11.09 (mandag-fredag) kl. 08:00-20:00.","lon":"10.484283","id":"66423","lat":"59.923665","url":"http://valglokaler.no/valglokale-forhands/rykkinn-bibliotek/"},{"kommune":"Bærum","fylke":"Akershus","navn":"Bekkestua bibliotek","sistEndret":"2015-09-03","addresse":"1350 Bekkestua","aapningstider":"10.08 - 28.08 (mandag-fredag) kl. 08:00-15:00.   Lørdag 29.08 og lørdag 05.09 kl. 10:00-15:00.   31.08 - 11.09 (mandag-fredag) kl. 08:00-20:00.","lon":"10.584699","id":"66425","lat":"59.917907","url":"http://valglokaler.no/valglokale-forhands/bekkestua-bibliotek/"},{"kommune":"Bærum","fylke":"Akershus","navn":"Kommunegården i Sandvika","sistEndret":"2015-09-03","addresse":"Arnold Haukelands plass 10, 1300 Sandvika","aapningstider":"10.08 - 28.08 (mandag-fredag) kl. 08:00-15:00.   Lørdag 29.08 og lørdag 05.09 kl. 10:00-15:00.   31.08 - 11.09  (mandag-fredag) kl. 08:00-20:00.","lon":"10.523381","id":"66438","lat":"59.889042","url":"http://valglokaler.no/valglokale-forhands/kommunegarden-i-sandvika/"},{"kommune":"Eidsvoll","fylke":"Akershus","navn":"Gladbakk aktivitetssenter","sistEndret":"2015-07-01","addresse":"Gladbakkvegen 54, 2070 Råholt","aapningstider":"Åpningstider:  Fredag 21.08. – kl. 1​​000 – 1600  Fredag 28.08. – kl. 1000 – 1600  Fredag 04.09. – kl. 1000 – 1600  Fredag 11.09. – kl. 1000 – 1600  Lørdag 22.08. – kl. 1000 – 1400  Lørdag 29.08. – kl. 1000 – 1400  Lørdag 05.09. – kl. 1000 - 1400    Ta med valgkort og legitimasjon!","lon":"11.171704","id":"66442","lat":"60.282454","url":"http://valglokaler.no/valglokale-forhands/gladbakk-aktivitetssenter/"},{"kommune":"Eidsvoll","fylke":"Akershus","navn":"Innbyggertorget","sistEndret":"2015-07-06","addresse":"Rådhusgata 1, 2080 Eidsvoll","aapningstider":"Åpningstider:  10.08. – 11.09. : Rådhusets åpningstider    Utvidet åpningstid:  Torsdagene 03.09. og 10.09. – frem til kl. 1900  Lørdagene 29.08. og 05.09. – kl 10.00 - 14.00    Ta med valgkort og legitimasjon!","lon":"11.261094","id":"66443","lat":"60.329157","url":"http://valglokaler.no/valglokale-forhands/innbyggertorget/"},{"kommune":"Eidsvoll","fylke":"Akershus","navn":"Eidsvoll videregående skole","sistEndret":"2015-06-30","addresse":"Jon Sørensens veg 8, 2080 Eidsvoll","aapningstider":"Åpningstid: Tirsdag 08.09.2015 kl. 1000 - 1400","lon":"11.263132","id":"66444","lat":"60.337399","url":"http://valglokaler.no/valglokale-forhands/eidsvoll-videregaende-skole/"},{"kommune":"Enebakk","fylke":"Akershus","navn":"Enebakk herredshus","sistEndret":"2015-06-30","addresse":"Prestegårdsveien 4, 1912 Enebakk","aapningstider":"","lon":"11.144879","id":"66454","lat":"59.764257","url":"http://valglokaler.no/valglokale-forhands/enebakk-herredshus/"},{"kommune":"Fet","fylke":"Akershus","navn":"Rådhuset","sistEndret":"2015-07-01","addresse":"1900 Fetsund","aapningstider":"Åpningstider:  10.08. – 11.09.2015 :      ​kl. 08:00 – 15:30     Utvidet åpningstid:  Torsdag 27.08.2015:       kl. 08:00 – 20:00  Torsdag 03.09.2015:       kl. 08.00 – 20:00  Lørdag 05.09.2015:         kl. 10:00 – 14:00  Tirsdag 08.09.2015:        kl. 08:00 – 21:00  Onsdag 09.09.2015:        kl. 08:00 – 21:00  Torsdag 10.09.2015:       kl. 08:00 – 21:00","lon":"11.168118","id":"66460","lat":"59.922087","url":"http://valglokaler.no/valglokale-forhands/radhuset-6/"},{"kommune":"Frogn","fylke":"Akershus","navn":"Rådhuset","sistEndret":"2015-06-30","addresse":"Rådhusveien 6, 1443 Drøbak","aapningstider":"Åpningstider  Hverdager: 10.08 - 31.8: kl. 09.00-15.00.     01.09-11.09: kl. 09.00-15.30 samt utvidet åpningstid 5.,6.,8.,9., og 10. september.","lon":"10.636203","id":"66467","lat":"59.666809","url":"http://valglokaler.no/valglokale-forhands/radhuset-7/"},{"kommune":"Gjerdrum","fylke":"Akershus","navn":"Gjerdrum Herredshus","sistEndret":"2015-06-30","addresse":"2022 Gjerdrum","aapningstider":"Åpningstider: 10.08.2015 - 17.08.2015: kl. 08.00 - 15.00 18.08.2015 - 11.09.2015: kl. 08.00 - 15.30","lon":"","id":"66470","lat":"","url":"http://valglokaler.no/valglokale-forhands/gjerdrum-herredshus/"},{"kommune":"Hurdal","fylke":"Akershus","navn":"Rådhuset","sistEndret":"2015-06-30","addresse":"Minneåsvegen 3, 2090 Hurdal","aapningstider":"10.08. - 14.08.2015 Kl 09:00-15:00   17.08. - 11.09.2015 Kl 08:00-15:00    Utvidet åpningstid   02.09. og 09.09.2015 Kl 08:00-18:00","lon":"11.066937","id":"66472","lat":"60.435313","url":"http://valglokaler.no/valglokale-forhands/radhuset-8/"},{"kommune":"Hurdal","fylke":"Akershus","navn":"Ute","sistEndret":"2015-06-30","addresse":"Minneåsvegen 3, 2090 Hurdal","aapningstider":"10.08. - 14.08.2015 Kl 09:00-15:00   17.08. - 11.09.2015 Kl 08:00-15:00    Utvidet åpningstid   02.09. og 09.09.2015 Kl 08:00-18:00","lon":"11.066937","id":"66473","lat":"60.435313","url":"http://valglokaler.no/valglokale-forhands/ute/"},{"kommune":"Lørenskog","fylke":"Akershus","navn":"Forhåndsstemme","sistEndret":"2015-07-03","addresse":"Veiviseren Lørenskog hus,Festplassen 1,1473 Lørenskog, 1473 Lørenskog","aapningstider":"Åpningstider:  10.08. - 10.09.2015:  Mandag til torsdag kl. 10.00 - 18.00.  Fredag kl. 10.00 - 15.00.    Fredag 11.09. kl. 10.00 - 13.00.","lon":"10.961609","id":"66482","lat":"59.927958","url":"http://valglokaler.no/valglokale-forhands/forhandsstemme/"},{"kommune":"Nannestad","fylke":"Akershus","navn":"Nannestad videregående skole","sistEndret":"2015-06-30","addresse":"Smedstuvegen 2, 2030 Nannestad","aapningstider":"For mer informasjon om valget, se kommunens nettside.","lon":"11.020271","id":"66484","lat":"60.219936","url":"http://valglokaler.no/valglokale-forhands/nannestad-videregaende-skole/"},{"kommune":"Nannestad","fylke":"Akershus","navn":"Nannestad sykehjem","sistEndret":"2015-07-01","addresse":"Mikkel Revs veg 2, 2030 Nannestad","aapningstider":"Åpningstid:  Torsdag 03.09.15 fra kl 09.30 – 12.30     For nærmere informasjon om valget, se kommunens nettside.","lon":"11.020137","id":"66487","lat":"60.222850","url":"http://valglokaler.no/valglokale-forhands/nannestad-sykehjem/"},{"kommune":"Nannestad","fylke":"Akershus","navn":"Servicekontoret","sistEndret":"2015-07-01","addresse":"Teiealleen 31, 2030 Nannestad","aapningstider":"Åpningstider:  10.08 - 11.09.15: kl 09.00 - 15.00    Utvidet åpningstid  08.09.15: kl 09.00 - 20.00  10.09.15: kl 09.00 - 20.00     For nærmere informasjon om valget, se kommunens nettside.","lon":"11.010895","id":"66488","lat":"60.216525","url":"http://valglokaler.no/valglokale-forhands/servicekontoret-3/"},{"kommune":"Nes","fylke":"Akershus","navn":"Nes rådhus","sistEndret":"2015-06-30","addresse":"Rådhusgata 2, 2150 Årnes","aapningstider":"Forhåndsstemming i Nes rådhus - se annonse i lokalavisene/Nes kommunes hjemmesider eller kontakt servicetorget - 63911000. Husk å ta med legitimasjon.","lon":"11.465757","id":"66498","lat":"60.122505","url":"http://valglokaler.no/valglokale-forhands/nes-radhus/"},{"kommune":"Nesodden","fylke":"Akershus","navn":"Tangenten","sistEndret":"2015-07-06","addresse":"Tangenten,Konglevn. 2, 1450 Nesoddtangen","aapningstider":"Forhåndsstemming foregår på Biblioteket, Tangenten, Konglevn. 2","lon":"10.662315","id":"66502","lat":"59.855895","url":"http://valglokaler.no/valglokale-forhands/tangenten/"},{"kommune":"Nittedal","fylke":"Akershus","navn":"Servicetorget – ordinære forhåndsstemmer","sistEndret":"2015-06-30","addresse":"Moveien 1, 1482 Nittedal","aapningstider":"","lon":"10.881766","id":"66506","lat":"60.043050","url":"http://valglokaler.no/valglokale-forhands/servicetorget-ordinaere-forhandsstemmer/"},{"kommune":"Oppegård","fylke":"Akershus","navn":"Rådhuset","sistEndret":"2015-07-02","addresse":"Kolbotnveien 30, 1410 Kolbotn","aapningstider":"Forhåndsstem på Rådhuset i ordinær åpningstid. Utvidet åpningstid fra 07.09-10.09 kl 08-18  Mer info på www.oppegard.kommune.no  Husk legitimasjon!","lon":"10.797071","id":"66512","lat":"59.811739","url":"http://valglokaler.no/valglokale-forhands/radhuset-9/"},{"kommune":"Rælingen","fylke":"Akershus","navn":"Forhåndsstemme","sistEndret":"2015-06-30","addresse":"2008 Fjerdingby","aapningstider":"Forhåndsstemmegivning kan skje på servicetorget, Rælingen rådhus fra 10.08.15 til og med 11.09.15.  Husk legitimasjon!","lon":"11.065979","id":"66518","lat":"59.925539","url":"http://valglokaler.no/valglokale-forhands/forhandsstemme-2/"},{"kommune":"Skedsmo","fylke":"Akershus","navn":"Skedsmo bibliotek","sistEndret":"2015-06-30","addresse":"Støperiveien 28, 2011 Strømmen","aapningstider":"Informasjon om åpningstider finner du på www.skedsmo.kommune.no/valg","lon":"11.009889","id":"66524","lat":"59.948864","url":"http://valglokaler.no/valglokale-forhands/skedsmo-bibliotek/"},{"kommune":"Skedsmo","fylke":"Akershus","navn":"Skedsmo rådhus","sistEndret":"2015-06-30","addresse":"Jonas Lies gt 18, 2000 Lillestrøm","aapningstider":"Informasjon om åpningstider finner du på www.skedsmo.kommune.no/valg","lon":"11.039436","id":"66526","lat":"59.954817","url":"http://valglokaler.no/valglokale-forhands/skedsmo-radhus/"},{"kommune":"Ski","fylke":"Akershus","navn":"Konvolutt – sentral registrering","sistEndret":"2015-06-30","addresse":"Postboks 3010, 1402 Ski","aapningstider":"Forhåndsstemmemottak: Rådhuset Man.-Fred. kl. 08.00-15.00. Husk: Du må ha med legitimasjon for å stemme. Se mer info på www.ski.no","lon":"10.83886","id":"66541","lat":"59.720416","url":"http://valglokaler.no/valglokale-forhands/konvolutt-sentral-registrering-2/"},{"kommune":"Ski","fylke":"Akershus","navn":"Rådhuset","sistEndret":"2015-06-30","addresse":"Idrettsveien 8, 1400 Ski","aapningstider":"Forhåndsstemmemottak: Rådhuset Man.-Fred. kl. 08:00-15:00. Husk: Du må ha med legitimasjon for å stemme. Se mer info på www.ski.no/Valg","lon":"10.83886","id":"66544","lat":"59.720416","url":"http://valglokaler.no/valglokale-forhands/radhuset-10/"},{"kommune":"Sørum","fylke":"Akershus","navn":"Sørum rådhus","sistEndret":"2015-06-30","addresse":"1920 Sørumsand","aapningstider":"Forhåndsstemmer mottas i Sørum rådhus og noen dager i biblioteket Frogner, etter særskilt kunngjøring.","lon":"11.240606","id":"66551","lat":"59.987111","url":"http://valglokaler.no/valglokale-forhands/sorum-radhus/"},{"kommune":"Ullensaker","fylke":"Akershus","navn":"Servicetorget","sistEndret":"2015-06-30","addresse":"Furusethgata 12, 2050 Jessheim","aapningstider":"","lon":"11.175377","id":"66553","lat":"60.143424","url":"http://valglokaler.no/valglokale-forhands/servicetorget-9/"},{"kommune":"Ullensaker","fylke":"Akershus","navn":"Jessheim bibliotek","sistEndret":"2015-07-03","addresse":"Furusethgata 12, 2050 Jessheim","aapningstider":"Åpningstider:  Uke 33:   Mandag og onsdag: 10:00 - 15:00  Tirsdag og torsdag: 12:00 - 18:00  Fredag: stengt  Lørdag: 10:00 - 14:00    Ukene 34 - 37:  Mandag, onsdag og fredag: 10:00 - 16:00  Tirsdag og torsdag: 12:00 - 19:00  Lørdag: 10:00 - 15:00","lon":"11.175048","id":"66554","lat":"60.14347","url":"http://valglokaler.no/valglokale-forhands/jessheim-bibliotek/"},{"kommune":"Ullensaker","fylke":"Akershus","navn":"Kløfta bibliotek","sistEndret":"2015-07-03","addresse":"Trondheimsvegen 84, 2040 Kløfta","aapningstider":"Åpningstider:    Uke 33:  Mandag: 12:00 - 18:00  Tirsdag - Torsdag: 12:00 - 15:00  Fredag og lørdag: Stengt    Ukene 34 - 37:  Mandag 11:00 - 18:00  Tirsdag og onsdag: 10:00 - 16:00  Torsdag 12:00 - 19:00  Fredag: Stengt  Lørdag: 11:00 - 14:00","lon":"11.137519","id":"66556","lat":"60.076125","url":"http://valglokaler.no/valglokale-forhands/klofta-bibliotek/"},{"kommune":"Vestby","fylke":"Akershus","navn":"Servicekontoret","sistEndret":"2015-06-30","addresse":"1540 Vestby","aapningstider":"Mandag 10.8 - 11.9 kl. 08.00 - 15.00.    Langåpent mandag 7.9 - onsdag 9.9 kl. 08.00 - 19.00.    Torsdag 10.9 kl. 08.00 - 20.00.","lon":"10.748089","id":"66566","lat":"59.601693","url":"http://valglokaler.no/valglokale-forhands/servicekontoret-4/"},{"kommune":"Alvdal","fylke":"Hedmark","navn":"Nyborg – kommunehus","sistEndret":"2015-06-30","addresse":"2560 Alvdal","aapningstider":"","lon":"10.634435","id":"66572","lat":"62.108567","url":"http://valglokaler.no/valglokale-forhands/nyborg-kommunehus/"},{"kommune":"Åmot","fylke":"Hedmark","navn":"Åmot Kulturhus – Biblioteket","sistEndret":"2015-06-30","addresse":"Torget 1, 2450 Rena","aapningstider":"Mandag 10.08.15 - fredag 11.09.15: 0900-1500  Torsdag 03.09.15: 0900 - 2000  Lørdag 05.09.15: 0900 - 1400  Tirsdag 08.09.15 - 0900 - 2100","lon":"11.37334678","id":"66575","lat":"61.13210720","url":"http://valglokaler.no/valglokale-forhands/amot-kulturhus-biblioteket/"},{"kommune":"Åsnes","fylke":"Hedmark","navn":"Rådhuset","sistEndret":"2015-06-30","addresse":"Rådhusgata 1, 2270 Flisa","aapningstider":"","lon":"12.01153434","id":"66579","lat":"60.61399244","url":"http://valglokaler.no/valglokale-forhands/radhuset-11/"},{"kommune":"Eidskog","fylke":"Hedmark","navn":"Eidskog Rådhus","sistEndret":"2015-06-30","addresse":"Rådhusvegen 11, 2230 Skotterud","aapningstider":"Husk valgkort og gyldig legitimasjon. Forhåndsstemmegivning 10.aug. - 11 sept.","lon":"12.125067","id":"66588","lat":"59.985427","url":"http://valglokaler.no/valglokale-forhands/eidskog-radhus/"},{"kommune":"Elverum","fylke":"Hedmark","navn":"Kommunehuset Folkvang. ordinære forh.stemmer","sistEndret":"2015-09-08","addresse":"Lærerskolealleen 1, 2408 Elverum","aapningstider":"","lon":"11.55800454","id":"66605","lat":"60.88571733","url":"http://valglokaler.no/valglokale-forhands/kommunehuset-folkvang-ordinaere-forh-stemmer/"},{"kommune":"Engerdal","fylke":"Hedmark","navn":"Konvolutt – sentral registrering","sistEndret":"2015-06-30","addresse":"Engerdalsveien 1794, 2440 Engerdal","aapningstider":"","lon":"11.959863","id":"66609","lat":"61.758322","url":"http://valglokaler.no/valglokale-forhands/konvolutt-sentral-registrering-3/"},{"kommune":"Engerdal","fylke":"Hedmark","navn":"Kommunehuset Enger","sistEndret":"2015-06-30","addresse":"Engerdalsveien 1794, 2440 Engerdal","aapningstider":"Du kan lese mer informasjon på kommunens hjemmeside","lon":"11.959863","id":"66610","lat":"61.758322","url":"http://valglokaler.no/valglokale-forhands/kommunehuset-enger/"},{"kommune":"Folldal","fylke":"Hedmark","navn":"Nyberg","sistEndret":"2015-06-30","addresse":"Nyberg, 2580 Folldal","aapningstider":"Åpningstider:  Alle hverdager fra 10.08.2015 til og med 11.09.2015 kl 09.00-14.30.","lon":"9.977","id":"66616","lat":"62.133","url":"http://valglokaler.no/valglokale-forhands/nyberg/"},{"kommune":"Grue","fylke":"Hedmark","navn":"Grue rådhus- Servicetorget","sistEndret":"2015-07-03","addresse":"2260 Kirkenær","aapningstider":"Alle dager kl. 08.00-15.00    Utvidet åpningstid:  Torsdag 03.09. til kl. 16.30.  Fredag 04.09. til kl. 16.30  Lørdag 05.09. kl. 11.00-14.00","lon":"12.0551","id":"66620","lat":"60.4516","url":"http://valglokaler.no/valglokale-forhands/servicetorget-10/"},{"kommune":"Hamar","fylke":"Hedmark","navn":"Sykehuset Innlandet Hamar","sistEndret":"2015-06-30","addresse":"Skolegata 32, 2318 Hamar","aapningstider":"Du kan forhåndsstemme ved Hamar sykehus 10. september kl. 10.00 til 15.00.","lon":"11.072041","id":"66625","lat":"60.798376","url":"http://valglokaler.no/valglokale-forhands/sykehuset-innlandet-hamar/"},{"kommune":"Hamar","fylke":"Hedmark","navn":"Østregate 122","sistEndret":"2015-06-30","addresse":"Østregate 122, 2317 Hamar","aapningstider":"Du kan forhåndsstemme i Østregate 122 4. september kl. 13.30 til 15.00.","lon":"11.087692","id":"66627","lat":"60.792140","url":"http://valglokaler.no/valglokale-forhands/ostregate-122/"},{"kommune":"Hamar","fylke":"Hedmark","navn":"Klukstuen omsorgsenter","sistEndret":"2015-06-30","addresse":"Stafsbergvegen 110, 2319 Hamar","aapningstider":"Du kan forhåndsstemme ved Klukstuen omsorgssenter 7. september kl.14.00 til 15.30.","lon":"11.080093","id":"66628","lat":"60.811050","url":"http://valglokaler.no/valglokale-forhands/klukstuen-omsorgsenter/"},{"kommune":"Hamar","fylke":"Hedmark","navn":"Hamar bibliotek","sistEndret":"2015-09-02","addresse":"Torggata 100, 2317 Hamar","aapningstider":"Du kan forhåndsstemme ved Hamar bibliotek lørdag 22. august, lørdag 29. august og lørdag 5. september kl. 11.00 til kl. 14.00.","lon":"11.067050","id":"66630","lat":"60.795132","url":"http://valglokaler.no/valglokale-forhands/hamar-bibliotek/"},{"kommune":"Hamar","fylke":"Hedmark","navn":"Prestrudsenteret og Kløverenga","sistEndret":"2015-07-07","addresse":"Jønsrudvegen 22, 2315 Hamar","aapningstider":"Du kan forhåndsstemme ved Prestrudsenteret kl. 10.00 - 12.00 og ved Kløverenga kl. 13.30 - 15.00 den 3.september.","lon":"11.045011","id":"66632","lat":"60.806775","url":"http://valglokaler.no/valglokale-forhands/prestrudsenteret-og-kloverenga/"},{"kommune":"Hamar","fylke":"Hedmark","navn":"Kåtorp bo- og aktivitetssenter","sistEndret":"2015-06-30","addresse":"Kåtorpgrenda 33, 2322 Ridabu","aapningstider":"Du kan stemme ved Kåtorp bo- og aktivitetssenter 9. september kl. 13.30 til 14.00.","lon":"11.147135","id":"66638","lat":"60.812349","url":"http://valglokaler.no/valglokale-forhands/katorp-bo-og-aktivitetssenter/"},{"kommune":"Hamar","fylke":"Hedmark","navn":"Finsalsenteret","sistEndret":"2015-06-30","addresse":"Finsalvegen 3, 2322 Ridabu","aapningstider":"Du kan forhåndsstemme ved Finsalsenteret 9. september kl. 10.00 - 12.00.","lon":"11.133380","id":"66639","lat":"60.804196","url":"http://valglokaler.no/valglokale-forhands/finsalsenteret/"},{"kommune":"Hamar","fylke":"Hedmark","navn":"Parkgården","sistEndret":"2015-07-08","addresse":"Parkgata 35, 2317 Hamar","aapningstider":"Du kan forhåndsstemme ved Parkgården 7. september fra kl. 10.00 - 12.00.","lon":"11.079396","id":"66641","lat":"60.793303","url":"http://valglokaler.no/valglokale-forhands/parkgarden/"},{"kommune":"Hamar","fylke":"Hedmark","navn":"Hamar rådhus – Servicekontoret","sistEndret":"2015-09-02","addresse":"Vangsvegen 51, 2317 Hamar","aapningstider":"Åpningstider  Mandag 31. august til og med fredag 4. september kl 08.00 – kl 16.00.   Lørdag 5. september kl 11.00 - 15.00.   Mandag 7. september til og med torsdag 10. september kl 08 00 - kl. 18.00.   Fredag 11. september kl 08.00 - 16.00.","lon":"11.078474","id":"66642","lat":"60.794478","url":"http://valglokaler.no/valglokale-forhands/hamar-radhus-servicekontoret/"},{"kommune":"Hamar","fylke":"Hedmark","navn":"Østregate 91","sistEndret":"2015-06-30","addresse":"Østregate 91, 2317 Hamar","aapningstider":"Du kan forhåndsstemme ved Østregate 91 4. september kl.10.00 til 12.00.","lon":"11.083517","id":"66644","lat":"60.792011","url":"http://valglokaler.no/valglokale-forhands/ostregate-91/"},{"kommune":"Kongsvinger","fylke":"Hedmark","navn":"Kongsvinger bibliotek","sistEndret":"2015-06-30","addresse":"Rådhusplassen 6, 2212 Kongsvinger","aapningstider":"Husk legitimasjon og valgkort ved stemmegivning","lon":"12.000980","id":"66645","lat":"60.191233","url":"http://valglokaler.no/valglokale-forhands/kongsvinger-bibliotek/"},{"kommune":"Løten","fylke":"Hedmark","navn":"Tingberg","sistEndret":"2015-07-08","addresse":"Kildevegen 1, 2340 Løten","aapningstider":"Åpningstider:  Mandag - fredag kl 0800-1530  Torsdag 10.sept kl 0800-1800  Fredag 11.sept kl 0800-1800","lon":"11.343872","id":"66658","lat":"60.817491","url":"http://valglokaler.no/valglokale-forhands/tingberg/"},{"kommune":"Løten","fylke":"Hedmark","navn":"Løten Helsetun","sistEndret":"2015-07-08","addresse":"Sykehusvegn 10, 2340 Løten","aapningstider":"Åpningstider:  8.september kl 1100 - 1300","lon":"11.351591","id":"66660","lat":"60.821674","url":"http://valglokaler.no/valglokale-forhands/loten-helsetun/"},{"kommune":"Løten","fylke":"Hedmark","navn":"Kvennhaugen","sistEndret":"2015-07-08","addresse":"Grinderengsletta 10, 2340 Løten","aapningstider":"Åpningstider:  9.september kl 1100 - 1300","lon":"11.342021","id":"66661","lat":"60.821559","url":"http://valglokaler.no/valglokale-forhands/kvennhaugen/"},{"kommune":"Nord-Odal","fylke":"Hedmark","navn":"Forhåndsstemmer","sistEndret":"2015-06-30","addresse":"Kommunehuset,Herredsveien 2, 2120 Sagstua","aapningstider":"Husk legitimasjon. Forhåndsstemming i servicetorgets åpningstid fra 01.07. I tillegg 05.09. fra 11-13 og torsdag 10.09 frem til 19.00.","lon":"11.54174104","id":"66669","lat":"60.39180833","url":"http://valglokaler.no/valglokale-forhands/forhandsstemmer/"},{"kommune":"Os","fylke":"Hedmark","navn":"Kommunehus","sistEndret":"2015-06-30","addresse":"2550 Os i Østerdalen","aapningstider":"","lon":"11.1341","id":"66677","lat":"62.2943","url":"http://valglokaler.no/valglokale-forhands/kommunehus/"},{"kommune":"Rendalen","fylke":"Hedmark","navn":"Kommunehuset","sistEndret":"2015-06-30","addresse":"Kommunehuset,Hanestadveien 1, 2485 Rendalen","aapningstider":"Åpningstider forhåndsstemmegivning:  10.08.-11.09.: Kl. 12.00-15.00 alle hverdager  + lørdagene 15.08. og 05.09. kl. 12.00-14.00 i Rendalen kommunehus","lon":"11.077137","id":"66679","lat":"61.889733","url":"http://valglokaler.no/valglokale-forhands/kommunehuset-2/"},{"kommune":"Ringsaker","fylke":"Hedmark","navn":"Ringsaker hovedbibliotek","sistEndret":"2015-06-30","addresse":"Buttekvernvegen 3, 2382 Brumunddal","aapningstider":"Åpent: 10.8-15.8.2015: Mand-fred kl.1000-1700.   Åpent: 17.8-11.9.2015: Mand-fred kl.1000-1900.  Åpent: Alle lørd i perioden kl. 1000-1400.","lon":"10.94691","id":"66690","lat":"60.884317","url":"http://valglokaler.no/valglokale-forhands/ringsaker-hovedbibliotek/"},{"kommune":"Ringsaker","fylke":"Hedmark","navn":"Servicesenteret/biblioteket i Herredshuset","sistEndret":"2015-06-30","addresse":"Åsmarkvegen 3, 2390 Moelv","aapningstider":"Åpent:10.-15.8.2015: Man/tors 10-17. Tirs/ons/fre 10-15. Åpent:17.8-11.9.2015:Man/tors 10-19. Tirs/ons/fre 10-16. Åpent : Alle lørd  i perioden 10-14.","lon":"10.702173","id":"66692","lat":"60.930605","url":"http://valglokaler.no/valglokale-forhands/servicesenteretbiblioteket-i-herredshuset/"},{"kommune":"Ringsaker","fylke":"Hedmark","navn":"Ringsaker kommunale servicesenter","sistEndret":"2015-06-30","addresse":"Brugata 2, 2380 Brumunddal","aapningstider":"Åpent: 10.8-31.8.2015: mandag til fredag kl. 0800 - 1500. Åpent: 1.9-11.9.2015  : mandag til fredag kl. 0800 - 1600.","lon":"10.93925","id":"66693","lat":"60.886061","url":"http://valglokaler.no/valglokale-forhands/ringsaker-kommunale-servicesenter/"},{"kommune":"Sør-Odal","fylke":"Hedmark","navn":"Rådhuset","sistEndret":"2015-06-30","addresse":"2100 Skarnes","aapningstider":"","lon":"11.683102","id":"66698","lat":"60.253484","url":"http://valglokaler.no/valglokale-forhands/radhuset-12/"},{"kommune":"Sør-Odal","fylke":"Hedmark","navn":"Biblioteket","sistEndret":"2015-06-30","addresse":"2100 Skarnes","aapningstider":"","lon":"11.683102","id":"66700","lat":"60.253484","url":"http://valglokaler.no/valglokale-forhands/biblioteket-3/"},{"kommune":"Stange","fylke":"Hedmark","navn":"Servicekontoret","sistEndret":"2015-06-30","addresse":"Storgata 45, 2335 Stange","aapningstider":"10. august - 11. september i rådhusets åpningstid, samt noe utvidet åpningstid. Se info på www.stange.kommune.no/valg.  Tlf. 62562000.","lon":"11.190905","id":"66709","lat":"60.715940","url":"http://valglokaler.no/valglokale-forhands/servicekontoret-5/"},{"kommune":"Stor-Elvdal","fylke":"Hedmark","navn":"Kommunehuset","sistEndret":"2015-07-01","addresse":"Storgata 120, 2480 Koppang","aapningstider":"Åpningstider:  10.08-11.09.2015:  mandag - fredag: kl. 08.00 - 15.00     Utvidet åpningstider:   lørdag 29.08.2015: kl. 10.00 – 14.00  fredag 04.09.2015: kl. 15.00 – 19.00  lørdag 05.09.2015: kl. 10.00 – 14.00  fredag 11.09.2015: kl. 15.00 – 19.00​","lon":"11.046643","id":"66714","lat":"61.572352","url":"http://valglokaler.no/valglokale-forhands/kommunehuset-3/"},{"kommune":"Tolga","fylke":"Hedmark","navn":"Kommunehuset","sistEndret":"2015-06-30","addresse":"2540 Tolga","aapningstider":"","lon":"10.997518","id":"66720","lat":"62.40971","url":"http://valglokaler.no/valglokale-forhands/kommunehuset-4/"},{"kommune":"Trysil","fylke":"Hedmark","navn":"Servicetorget","sistEndret":"2015-07-20","addresse":"Storvegen 5, 2420 Trysil","aapningstider":"Tidligstemmegivning:  •\tI perioden 1. juli - 7. august 2015  •\tÅpningstid mandag - fredag kl 9-15    Ordinær forhåndsstemmegivning:  •\tI perioden 10. august - 11. september 2015  •\tÅpningstid mandag - fredag kl 9-15  •\tUtvidet åpningstid til kl 18: torsdag 27. august, tirsdag 8. september og torsdag 10. september  •\tLørdagsåpent kl 10-14: 29. august og 5. september","lon":"12.264218","id":"66734","lat":"61.31533","url":"http://valglokaler.no/valglokale-forhands/servicetorget-11/"},{"kommune":"Tynset","fylke":"Hedmark","navn":"Servicetorget","sistEndret":"2015-06-30","addresse":"2500 Tynset","aapningstider":"Åpningstider:  10.08. - 11.09.2015: Kl. 09.00-15.30 (hverdager)    Det er ikke anledning til å forhåndsstemme via Internett ved valget i 2015.","lon":"10.776788","id":"66739","lat":"62.274048","url":"http://valglokaler.no/valglokale-forhands/servicetorget-12/"}],"page":1,"pages":8,"posts":774}